{
	"type" : "FeatureCollection",
	"name" : "Offices",
	"features" : [
		{
			"type" : "Feature",
			"geometry" : {
				"type" : "Point",
				"coordinates" : [ 54.37173, 24.46918 ]
			},
			"properties" : {
				"City" : "Abu Dhabi",
				"Country" : "United Arab Emirates",
				"NumbEmployees" : 6,
				"Ph_numb" : "+971 (0) 4 810 5000",
				"Arup_Region" : "UKIMEA Region"
			}
		},
		{
			"type" : "Feature",
			"geometry" : {
				"type" : "Point",
				"coordinates" : [ 7.46228, 9.06344 ]
			},
			"properties" : {
				"City" : "Abuja",
				"Country" : "Nigeria",
				"NumbEmployees" : 1,
				"Ph_numb" : "234-9-523-0839",
				"Arup_Region" : "Not available"
			}
		},
		{
			"type" : "Feature",
			"geometry" : {
				"type" : "Point",
				"coordinates" : [ 138.5998, -34.92585 ]
			},
			"properties" : {
				"City" : "Adelaide",
				"Country" : "Australia",
				"NumbEmployees" : 74,
				"Ph_numb" : "+61 8 8413 6500",
				"Arup_Region" : "Australasia Region"
			}
		},
		{
			"type" : "Feature",
			"geometry" : {
				"type" : "Point",
				"coordinates" : [ 4.90788, 52.36993 ]
			},
			"properties" : {
				"City" : "Amsterdam",
				"Country" : "Netherlands",
				"NumbEmployees" : 217,
				"Ph_numb" : "+31 20 305 8500",
				"Arup_Region" : "Europe"
			}
		},
		{
			"type" : "Feature",
			"geometry" : {
				"type" : "Point",
				"coordinates" : [ 32.85391, 39.92109 ]
			},
			"properties" : {
				"City" : "Ankara",
				"Country" : "Turkey",
				"NumbEmployees" : 7,
				"Ph_numb" : "+90 312 440 76 96 / 40",
				"Arup_Region" : "Europe"
			}
		},
		{
			"type" : "Feature",
			"geometry" : {
				"type" : "Point",
				"coordinates" : [ 174.764387853, -36.848399041 ]
			},
			"properties" : {
				"City" : "Auckland",
				"Country" : "New Zealand",
				"NumbEmployees" : 69,
				"Ph_numb" : "+64 9 301 7000",
				"Arup_Region" : "Australasia Region"
			}
		},
		{
			"type" : "Feature",
			"geometry" : {
				"type" : "Point",
				"coordinates" : [ 77.5869, 12.96618 ]
			},
			"properties" : {
				"City" : "Bangalore",
				"Country" : "India",
				"NumbEmployees" : 1,
				"Ph_numb" : "Not available",
				"Arup_Region" : "East Asia Region"
			}
		},
		{
			"type" : "Feature",
			"geometry" : {
				"type" : "Point",
				"coordinates" : [ 100.50483, 13.75336 ]
			},
			"properties" : {
				"City" : "Bangkok",
				"Country" : "Thailand",
				"NumbEmployees" : 34,
				"Ph_numb" : "+66 2716 1561",
				"Arup_Region" : "East Asia Region"
			}
		},
		{
			"type" : "Feature",
			"geometry" : {
				"type" : "Point",
				"coordinates" : [ 116.39723, 39.9075 ]
			},
			"properties" : {
				"City" : "Beijing",
				"Country" : "China",
				"NumbEmployees" : 107,
				"Ph_numb" : "Switchboard +86 10 5960 1188",
				"Arup_Region" : "East Asia Region"
			}
		},
		{
			"type" : "Feature",
			"geometry" : {
				"type" : "Point",
				"coordinates" : [ -5.93455, 54.59534 ]
			},
			"properties" : {
				"City" : "Belfast",
				"Country" : "United Kingdom",
				"NumbEmployees" : 107,
				"Ph_numb" : "+44 28 9089 0900",
				"Arup_Region" : "UKIMEA Region"
			}
		},
		{
			"type" : "Feature",
			"geometry" : {
				"type" : "Point",
				"coordinates" : [ 20.46329, 44.8131 ]
			},
			"properties" : {
				"City" : "Belgrade",
				"Country" : "Serbia",
				"NumbEmployees" : 21,
				"Ph_numb" : "+381 11 20 99 850",
				"Arup_Region" : "Europe"
			}
		},
		{
			"type" : "Feature",
			"geometry" : {
				"type" : "Point",
				"coordinates" : [ 13.37691, 52.51604 ]
			},
			"properties" : {
				"City" : "Berlin",
				"Country" : "Germany",
				"NumbEmployees" : 180,
				"Ph_numb" : "+49 30 885 9100",
				"Arup_Region" : "Europe"
			}
		},
		{
			"type" : "Feature",
			"geometry" : {
				"type" : "Point",
				"coordinates" : [ -74.06941, 4.61496 ]
			},
			"properties" : {
				"City" : "Bogota",
				"Country" : "Colombia",
				"NumbEmployees" : 27,
				"Ph_numb" : "+571 6537450",
				"Arup_Region" : "Americas Region"
			}
		},
		{
			"type" : "Feature",
			"geometry" : {
				"type" : "Point",
				"coordinates" : [ -71.05674, 42.35866 ]
			},
			"properties" : {
				"City" : "Boston",
				"Country" : "United States of America",
				"NumbEmployees" : 93,
				"Ph_numb" : "+1 617 864 2987",
				"Arup_Region" : "Americas Region"
			}
		},
		{
			"type" : "Feature",
			"geometry" : {
				"type" : "Point",
				"coordinates" : [ 153.02334, -27.46844 ]
			},
			"properties" : {
				"City" : "Brisbane",
				"Country" : "Australia",
				"NumbEmployees" : 441,
				"Ph_numb" : "+61 7 3023 6000",
				"Arup_Region" : "Australasia Region"
			}
		},
		{
			"type" : "Feature",
			"geometry" : {
				"type" : "Point",
				"coordinates" : [ -2.59168, 51.45379 ]
			},
			"properties" : {
				"City" : "Bristol",
				"Country" : "United Kingdom",
				"NumbEmployees" : 403,
				"Ph_numb" : "+44 117 976 5432",
				"Arup_Region" : "UKIMEA Region"
			}
		},
		{
			"type" : "Feature",
			"geometry" : {
				"type" : "Point",
				"coordinates" : [ 114.750750209, 4.520762436 ]
			},
			"properties" : {
				"City" : "Brunei",
				"Country" : "Brunei",
				"NumbEmployees" : 5,
				"Ph_numb" : "+673 2653290",
				"Arup_Region" : "Not available"
			}
		},
		{
			"type" : "Feature",
			"geometry" : {
				"type" : "Point",
				"coordinates" : [ 145.77368, -16.91955 ]
			},
			"properties" : {
				"City" : "Cairns",
				"Country" : "Australia",
				"NumbEmployees" : 18,
				"Ph_numb" : "+61 07 4032 6000",
				"Arup_Region" : "Australasia Region"
			}
		},
		{
			"type" : "Feature",
			"geometry" : {
				"type" : "Point",
				"coordinates" : [ 149.12655, -35.30654 ]
			},
			"properties" : {
				"City" : "Canberra",
				"Country" : "Australia",
				"NumbEmployees" : 14,
				"Ph_numb" : "+61 2 6191 7700",
				"Arup_Region" : "Australasia Region"
			}
		},
		{
			"type" : "Feature",
			"geometry" : {
				"type" : "Point",
				"coordinates" : [ 18.42198, -33.91909 ]
			},
			"properties" : {
				"City" : "Cape Town",
				"Country" : "South Africa",
				"NumbEmployees" : 23,
				"Ph_numb" : "+27 21 409 3500",
				"Arup_Region" : "UKIMEA Region"
			}
		},
		{
			"type" : "Feature",
			"geometry" : {
				"type" : "Point",
				"coordinates" : [ -3.18072, 51.48127 ]
			},
			"properties" : {
				"City" : "Cardiff",
				"Country" : "United Kingdom",
				"NumbEmployees" : 423,
				"Ph_numb" : "+44 29 2047 3727",
				"Arup_Region" : "UKIMEA Region"
			}
		},
		{
			"type" : "Feature",
			"geometry" : {
				"type" : "Point",
				"coordinates" : [ -87.63245, 41.88425 ]
			},
			"properties" : {
				"City" : "Chicago",
				"Country" : "United States of America",
				"NumbEmployees" : 51,
				"Ph_numb" : "+1 312 849 5610",
				"Arup_Region" : "Americas Region"
			}
		},
		{
			"type" : "Feature",
			"geometry" : {
				"type" : "Point",
				"coordinates" : [ 106.55278, 29.56278 ]
			},
			"properties" : {
				"City" : "Chongqing",
				"Country" : "China",
				"NumbEmployees" : 38,
				"Ph_numb" : "+ 86 23 8988 8288",
				"Arup_Region" : "East Asia Region"
			}
		},
		{
			"type" : "Feature",
			"geometry" : {
				"type" : "Point",
				"coordinates" : [ 12.56756, 55.67567 ]
			},
			"properties" : {
				"City" : "Copenhagen",
				"Country" : "Denmark",
				"NumbEmployees" : 67,
				"Ph_numb" : "+45 3377 0760",
				"Arup_Region" : "Europe"
			}
		},
		{
			"type" : "Feature",
			"geometry" : {
				"type" : "Point",
				"coordinates" : [ -8.47279, 51.89834 ]
			},
			"properties" : {
				"City" : "Cork",
				"Country" : "Ireland",
				"NumbEmployees" : 188,
				"Ph_numb" : "+353 21 4223200",
				"Arup_Region" : "Europe"
			}
		},
		{
			"type" : "Feature",
			"geometry" : {
				"type" : "Point",
				"coordinates" : [ -96.79512, 32.77822 ]
			},
			"properties" : {
				"City" : "Dallas",
				"Country" : "United States of America",
				"NumbEmployees" : 13,
				"Ph_numb" : "Not available",
				"Arup_Region" : "Not available"
			}
		},
		{
			"type" : "Feature",
			"geometry" : {
				"type" : "Point",
				"coordinates" : [ 77.21689, 28.6341 ]
			},
			"properties" : {
				"City" : "Delhi",
				"Country" : "India",
				"NumbEmployees" : 1,
				"Ph_numb" : "Not available",
				"Arup_Region" : "East Asia Region"
			}
		},
		{
			"type" : "Feature",
			"geometry" : {
				"type" : "Point",
				"coordinates" : [ 55.30884, 25.26951 ]
			},
			"properties" : {
				"City" : "Dubai",
				"Country" : "United Arab Emirates",
				"NumbEmployees" : 81,
				"Ph_numb" : "+971 4 550 7300",
				"Arup_Region" : "UKIMEA Region"
			}
		},
		{
			"type" : "Feature",
			"geometry" : {
				"type" : "Point",
				"coordinates" : [ -6.24827, 53.34807 ]
			},
			"properties" : {
				"City" : "Dublin",
				"Country" : "Ireland",
				"NumbEmployees" : 453,
				"Ph_numb" : "+353 1 2334455",
				"Arup_Region" : "Europe"
			}
		},
		{
			"type" : "Feature",
			"geometry" : {
				"type" : "Point",
				"coordinates" : [ 31.02574, -29.84703 ]
			},
			"properties" : {
				"City" : "Durban",
				"Country" : "South Africa",
				"NumbEmployees" : 34,
				"Ph_numb" : "+27 (0) 31 328 8700",
				"Arup_Region" : "UKIMEA Region"
			}
		},
		{
			"type" : "Feature",
			"geometry" : {
				"type" : "Point",
				"coordinates" : [ 6.77666, 51.21564 ]
			},
			"properties" : {
				"City" : "Dusseldorf",
				"Country" : "Germany",
				"NumbEmployees" : 29,
				"Ph_numb" : "+49 211 172 90 0",
				"Arup_Region" : "Europe"
			}
		},
		{
			"type" : "Feature",
			"geometry" : {
				"type" : "Point",
				"coordinates" : [ -3.20144, 55.95438 ]
			},
			"properties" : {
				"City" : "Edinburgh",
				"Country" : "United Kingdom",
				"NumbEmployees" : 158,
				"Ph_numb" : "+44 131 331 1999",
				"Arup_Region" : "UKIMEA Region"
			}
		},
		{
			"type" : "Feature",
			"geometry" : {
				"type" : "Point",
				"coordinates" : [ 8.68341, 50.11208 ]
			},
			"properties" : {
				"City" : "Frankfurt",
				"Country" : "Germany",
				"NumbEmployees" : 64,
				"Ph_numb" : "+49 69 209 778 0",
				"Arup_Region" : "Europe"
			}
		},
		{
			"type" : "Feature",
			"geometry" : {
				"type" : "Point",
				"coordinates" : [ -9.04831, 53.27395 ]
			},
			"properties" : {
				"City" : "Galway",
				"Country" : "Ireland",
				"NumbEmployees" : 27,
				"Ph_numb" : "091 894700",
				"Arup_Region" : "Europe"
			}
		},
		{
			"type" : "Feature",
			"geometry" : {
				"type" : "Point",
				"coordinates" : [ -4.24251, 55.85783 ]
			},
			"properties" : {
				"City" : "Glasgow",
				"Country" : "United Kingdom",
				"NumbEmployees" : 156,
				"Ph_numb" : "+44 141 332 8534",
				"Arup_Region" : "UKIMEA Region"
			}
		},
		{
			"type" : "Feature",
			"geometry" : {
				"type" : "Point",
				"coordinates" : [ 6.57357, 53.21716 ]
			},
			"properties" : {
				"City" : "Groningen",
				"Country" : "Netherlands",
				"NumbEmployees" : 16,
				"Ph_numb" : "Not available",
				"Arup_Region" : "Europe"
			}
		},
		{
			"type" : "Feature",
			"geometry" : {
				"type" : "Point",
				"coordinates" : [ 113.25, 23.11667 ]
			},
			"properties" : {
				"City" : "Guangzhou",
				"Country" : "China",
				"NumbEmployees" : 49,
				"Ph_numb" : "8620 3718 9900",
				"Arup_Region" : "East Asia Region"
			}
		},
		{
			"type" : "Feature",
			"geometry" : {
				"type" : "Point",
				"coordinates" : [ 31.04995, -17.82439 ]
			},
			"properties" : {
				"City" : "Harare",
				"Country" : "Zimbabwe",
				"NumbEmployees" : 64,
				"Ph_numb" : "263 4 369111-17",
				"Arup_Region" : "UKIMEA Region"
			}
		},
		{
			"type" : "Feature",
			"geometry" : {
				"type" : "Point",
				"coordinates" : [ 106.70323, 10.77822 ]
			},
			"properties" : {
				"City" : "Ho Chi Minh City",
				"Country" : "Vietnam",
				"NumbEmployees" : 72,
				"Ph_numb" : "84 28 6291 4062"
			}
		},
		{
			"type" : "Feature",
			"geometry" : {
				"type" : "Point",
				"coordinates" : [ 114.133395414, 22.364636905 ]
			},
			"properties" : {
				"City" : "Hong Kong",
				"Country" : "Hong Kong",
				"NumbEmployees" : 1289,
				"Ph_numb" : "+852 2528 3031",
				"Arup_Region" : "East Asia Region"
			}
		},
		{
			"type" : "Feature",
			"geometry" : {
				"type" : "Point",
				"coordinates" : [ -95.36968, 29.76058 ]
			},
			"properties" : {
				"City" : "Houston",
				"Country" : "United States of America",
				"NumbEmployees" : 79,
				"Ph_numb" : "+1 713 783 2787",
				"Arup_Region" : "Americas Region"
			}
		},
		{
			"type" : "Feature",
			"geometry" : {
				"type" : "Point",
				"coordinates" : [ 78.47076, 17.39487 ]
			},
			"properties" : {
				"City" : "Hyderabad",
				"Country" : "India",
				"NumbEmployees" : 48,
				"Ph_numb" : "+91 40 44369797",
				"Arup_Region" : "East Asia Region"
			}
		},
		{
			"type" : "Feature",
			"geometry" : {
				"type" : "Point",
				"coordinates" : [ 28.94966, 41.01384 ]
			},
			"properties" : {
				"City" : "Istanbul",
				"Country" : "Turkey",
				"NumbEmployees" : 169,
				"Ph_numb" : "+90 212 318 6300",
				"Arup_Region" : "Europe"
			}
		},
		{
			"type" : "Feature",
			"geometry" : {
				"type" : "Point",
				"coordinates" : [ 106.82649, -6.17148 ]
			},
			"properties" : {
				"City" : "Jakarta",
				"Country" : "Indonesia",
				"NumbEmployees" : 31,
				"Ph_numb" : "+62 21 50846000",
				"Arup_Region" : "Australasia Region"
			}
		},
		{
			"type" : "Feature",
			"geometry" : {
				"type" : "Point",
				"coordinates" : [ 28.04006, -26.20491 ]
			},
			"properties" : {
				"City" : "Johannesburg",
				"Country" : "South Africa",
				"NumbEmployees" : 84,
				"Ph_numb" : "+27 11 218 7600",
				"Arup_Region" : "UKIMEA Region"
			}
		},
		{
			"type" : "Feature",
			"geometry" : {
				"type" : "Point",
				"coordinates" : [ 19.93242, 50.06045 ]
			},
			"properties" : {
				"City" : "Krakow",
				"Country" : "Poland",
				"NumbEmployees" : 76,
				"Ph_numb" : "+48 12 292 22 30",
				"Arup_Region" : "Europe"
			}
		},
		{
			"type" : "Feature",
			"geometry" : {
				"type" : "Point",
				"coordinates" : [ 101.69405, 3.14789 ]
			},
			"properties" : {
				"City" : "Kuala Lumpur",
				"Country" : "Malaysia",
				"NumbEmployees" : 284,
				"Ph_numb" : "+60 3 6273 2223",
				"Arup_Region" : "Australasia Region"
			}
		},
		{
			"type" : "Feature",
			"geometry" : {
				"type" : "Point",
				"coordinates" : [ 3.38876, 6.4547 ]
			},
			"properties" : {
				"City" : "Lagos",
				"Country" : "Nigeria",
				"NumbEmployees" : 126,
				"Ph_numb" : "234-1-260-0520 to 9",
				"Arup_Region" : "Not available"
			}
		},
		{
			"type" : "Feature",
			"geometry" : {
				"type" : "Point",
				"coordinates" : [ -1.54653, 53.7948 ]
			},
			"properties" : {
				"City" : "Leeds",
				"Country" : "United Kingdom",
				"NumbEmployees" : 388,
				"Ph_numb" : "+44 113 242 8498"
			}
		},
		{
			"type" : "Feature",
			"geometry" : {
				"type" : "Point",
				"coordinates" : [ -8.63259, 52.66098 ]
			},
			"properties" : {
				"City" : "Limerick",
				"Country" : "Ireland",
				"NumbEmployees" : 19,
				"Ph_numb" : "353-61-212100",
				"Arup_Region" : "Europe"
			}
		},
		{
			"type" : "Feature",
			"geometry" : {
				"type" : "Point",
				"coordinates" : [ -2.97843, 53.41009 ]
			},
			"properties" : {
				"City" : "Liverpool",
				"Country" : "United Kingdom",
				"NumbEmployees" : 66,
				"Ph_numb" : "+44 151 227 9397",
				"Arup_Region" : "UKIMEA Region"
			}
		},
		{
			"type" : "Feature",
			"geometry" : {
				"type" : "Point",
				"coordinates" : [ -0.12721, 51.50642 ]
			},
			"properties" : {
				"City" : "London",
				"Country" : "United Kingdom",
				"NumbEmployees" : 3053,
				"Ph_numb" : "+44 20 7636 1531",
				"Arup_Region" : "UKIMEA Region"
			}
		},
		{
			"type" : "Feature",
			"geometry" : {
				"type" : "Point",
				"coordinates" : [ -118.24532, 34.05349 ]
			},
			"properties" : {
				"City" : "Los Angeles",
				"Country" : "United States of America",
				"NumbEmployees" : 314,
				"Ph_numb" : "+1 310 578 4400",
				"Arup_Region" : "Americas Region"
			}
		},
		{
			"type" : "Feature",
			"geometry" : {
				"type" : "Point",
				"coordinates" : [ 113.56017435, 22.161230275 ]
			},
			"properties" : {
				"City" : "Macau",
				"Country" : "Macau",
				"NumbEmployees" : 35,
				"Ph_numb" : "853 85065800",
				"Arup_Region" : "East Asia Region"
			}
		},
		{
			"type" : "Feature",
			"geometry" : {
				"type" : "Point",
				"coordinates" : [ -3.69196, 40.41955 ]
			},
			"properties" : {
				"City" : "Madrid",
				"Country" : "Spain",
				"NumbEmployees" : 224,
				"Ph_numb" : "+34 91 523 92 76",
				"Arup_Region" : "Europe"
			}
		},
		{
			"type" : "Feature",
			"geometry" : {
				"type" : "Point",
				"coordinates" : [ -2.24874, 53.47959 ]
			},
			"properties" : {
				"City" : "Manchester",
				"Country" : "United Kingdom",
				"NumbEmployees" : 422,
				"Ph_numb" : "+44 161 228 2331",
				"Arup_Region" : "UKIMEA Region"
			}
		},
		{
			"type" : "Feature",
			"geometry" : {
				"type" : "Point",
				"coordinates" : [ 120.98454, 14.58864 ]
			},
			"properties" : {
				"City" : "Manila",
				"Country" : "Philippines",
				"NumbEmployees" : 174,
				"Ph_numb" : "+63 2 3485 8200"
			}
		},
		{
			"type" : "Feature",
			"geometry" : {
				"type" : "Point",
				"coordinates" : [ 153.09349, -26.65521 ]
			},
			"properties" : {
				"City" : "Maroochydore",
				"Country" : "Australia",
				"NumbEmployees" : 7,
				"Ph_numb" : "61 07 3023 6217",
				"Arup_Region" : "Australasia Region"
			}
		},
		{
			"type" : "Feature",
			"geometry" : {
				"type" : "Point",
				"coordinates" : [ 57.571817464, -20.283556219 ]
			},
			"properties" : {
				"City" : "Mauritius",
				"Country" : "Mauritius",
				"NumbEmployees" : 120,
				"Ph_numb" : "+230 601 9800",
				"Arup_Region" : "UKIMEA Region"
			}
		},
		{
			"type" : "Feature",
			"geometry" : {
				"type" : "Point",
				"coordinates" : [ 144.96751, -37.81739 ]
			},
			"properties" : {
				"City" : "Melbourne",
				"Country" : "Australia",
				"NumbEmployees" : 617,
				"Ph_numb" : "+61 3 9668 5500",
				"Arup_Region" : "Australasia Region"
			}
		},
		{
			"type" : "Feature",
			"geometry" : {
				"type" : "Point",
				"coordinates" : [ 30.36645, -29.6069 ]
			},
			"properties" : {
				"City" : "Midlands Campus",
				"Country" : "United Kingdom",
				"NumbEmployees" : 915,
				"Ph_numb" : "44 (0)121 213 3000",
				"Arup_Region" : "UKIMEA Region"
			}
		},
		{
			"type" : "Feature",
			"geometry" : {
				"type" : "Point",
				"coordinates" : [ 9.18178, 45.46796 ]
			},
			"properties" : {
				"City" : "Milan",
				"Country" : "Italy",
				"NumbEmployees" : 136,
				"Ph_numb" : "+39 02 8597 9301",
				"Arup_Region" : "Europe"
			}
		},
		{
			"type" : "Feature",
			"geometry" : {
				"type" : "Point",
				"coordinates" : [ -73.55469, 45.5124 ]
			},
			"properties" : {
				"City" : "Montreal",
				"Country" : "Canada",
				"NumbEmployees" : 57,
				"Ph_numb" : "+1 514 448 6694",
				"Arup_Region" : "Americas Region"
			}
		},
		{
			"type" : "Feature",
			"geometry" : {
				"type" : "Point",
				"coordinates" : [ 37.61502, 55.75696 ]
			},
			"properties" : {
				"City" : "Moscow",
				"Country" : "Russia",
				"NumbEmployees" : 31,
				"Ph_numb" : "+7 495 933 7557",
				"Arup_Region" : "Europe"
			}
		},
		{
			"type" : "Feature",
			"geometry" : {
				"type" : "Point",
				"coordinates" : [ 72.83483, 18.94017 ]
			},
			"properties" : {
				"City" : "Mumbai",
				"Country" : "India",
				"NumbEmployees" : 22,
				"Ph_numb" : "91 22 7153 8000",
				"Arup_Region" : "East Asia Region"
			}
		},
		{
			"type" : "Feature",
			"geometry" : {
				"type" : "Point",
				"coordinates" : [ 36.82379, -1.28352 ]
			},
			"properties" : {
				"City" : "Nairobi",
				"Country" : "Kenya",
				"NumbEmployees" : 1,
				"Ph_numb" : "Not available",
				"Arup_Region" : "UKIMEA Region"
			}
		},
		{
			"type" : "Feature",
			"geometry" : {
				"type" : "Point",
				"coordinates" : [ -74.728565, 39.613348353 ]
			},
			"properties" : {
				"City" : "New Jersey",
				"Country" : "United States of America",
				"NumbEmployees" : 49,
				"Ph_numb" : "+1 732 623 7402"
			}
		},
		{
			"type" : "Feature",
			"geometry" : {
				"type" : "Point",
				"coordinates" : [ -74.00714, 40.71455 ]
			},
			"properties" : {
				"City" : "New York",
				"Country" : "United States of America",
				"NumbEmployees" : 499,
				"Ph_numb" : "+1 212 896 3000",
				"Arup_Region" : "Americas Region"
			}
		},
		{
			"type" : "Feature",
			"geometry" : {
				"type" : "Point",
				"coordinates" : [ 151.77261, -32.92806 ]
			},
			"properties" : {
				"City" : "Newcastle",
				"Country" : "United Kingdom",
				"NumbEmployees" : 343,
				"Ph_numb" : "+44 191 261 6080",
				"Arup_Region" : "UKIMEA Region"
			}
		},
		{
			"type" : "Feature",
			"geometry" : {
				"type" : "Point",
				"coordinates" : [ -1.14372, 52.94924 ]
			},
			"properties" : {
				"City" : "Nottingham",
				"Country" : "United Kingdom",
				"NumbEmployees" : 102,
				"Ph_numb" : "+44 115 948 4711",
				"Arup_Region" : "UKIMEA Region"
			}
		},
		{
			"type" : "Feature",
			"geometry" : {
				"type" : "Point",
				"coordinates" : [ -122.27307, 37.80508 ]
			},
			"properties" : {
				"City" : "Oakland",
				"Country" : "United States of America",
				"NumbEmployees" : 32,
				"Ph_numb" : "+1 510 368 9933",
				"Arup_Region" : "Americas Region"
			}
		},
		{
			"type" : "Feature",
			"geometry" : {
				"type" : "Point",
				"coordinates" : [ 100.399497715, 5.367016521 ]
			},
			"properties" : {
				"City" : "Penang",
				"Country" : "Malaysia",
				"NumbEmployees" : 108,
				"Ph_numb" : "+60 4 227 8908/227-8345",
				"Arup_Region" : "Australasia Region"
			}
		},
		{
			"type" : "Feature",
			"geometry" : {
				"type" : "Point",
				"coordinates" : [ 115.85742, -31.95265 ]
			},
			"properties" : {
				"City" : "Perth",
				"Country" : "Australia",
				"NumbEmployees" : 189,
				"Ph_numb" : "+61 8 9327 8300",
				"Arup_Region" : "Australasia Region"
			}
		},
		{
			"type" : "Feature",
			"geometry" : {
				"type" : "Point",
				"coordinates" : [ 104.87899, 11.56263 ]
			},
			"properties" : {
				"City" : "Phnom Penh",
				"Country" : "Cambodia",
				"NumbEmployees" : 3,
				"Ph_numb" : "+855 (0) 23 963 103",
				"Arup_Region" : "East Asia Region"
			}
		},
		{
			"type" : "Feature",
			"geometry" : {
				"type" : "Point",
				"coordinates" : [ 117.131558254, 5.351424902 ]
			},
			"properties" : {
				"City" : "Sabah",
				"Country" : "Malaysia",
				"NumbEmployees" : 1,
				"Ph_numb" : "60 88 269077",
				"Arup_Region" : "Australasia Region"
			}
		},
		{
			"type" : "Feature",
			"geometry" : {
				"type" : "Point",
				"coordinates" : [ -122.41964, 37.77712 ]
			},
			"properties" : {
				"City" : "San Francisco",
				"Country" : "United States of America",
				"NumbEmployees" : 278,
				"Ph_numb" : "+1 415 957 9445",
				"Arup_Region" : "Americas Region"
			}
		},
		{
			"type" : "Feature",
			"geometry" : {
				"type" : "Point",
				"coordinates" : [ -122.32945, 47.60357 ]
			},
			"properties" : {
				"City" : "Seattle",
				"Country" : "United States of America",
				"NumbEmployees" : 72,
				"Ph_numb" : "+ 1 206 749 9674"
			}
		},
		{
			"type" : "Feature",
			"geometry" : {
				"type" : "Point",
				"coordinates" : [ 126.97783, 37.56826 ]
			},
			"properties" : {
				"City" : "Seoul",
				"Country" : "Korea, South",
				"NumbEmployees" : 5,
				"Ph_numb" : "+82 2 3445 3861",
				"Arup_Region" : "East Asia Region"
			}
		},
		{
			"type" : "Feature",
			"geometry" : {
				"type" : "Point",
				"coordinates" : [ 121.45806, 31.22222 ]
			},
			"properties" : {
				"City" : "Shanghai",
				"Country" : "China",
				"NumbEmployees" : 252,
				"Ph_numb" : "+86 21 311 88888",
				"Arup_Region" : "East Asia Region"
			}
		},
		{
			"type" : "Feature",
			"geometry" : {
				"type" : "Point",
				"coordinates" : [ -1.46454, 53.38311 ]
			},
			"properties" : {
				"City" : "Sheffield",
				"Country" : "United Kingdom",
				"NumbEmployees" : 147,
				"Ph_numb" : "+44 114 272 8247",
				"Arup_Region" : "UKIMEA Region"
			}
		},
		{
			"type" : "Feature",
			"geometry" : {
				"type" : "Point",
				"coordinates" : [ 114.0683, 22.54554 ]
			},
			"properties" : {
				"City" : "Shenzhen",
				"Country" : "China",
				"NumbEmployees" : 200,
				"Ph_numb" : "+86 755 2388 9000",
				"Arup_Region" : "East Asia Region"
			}
		},
		{
			"type" : "Feature",
			"geometry" : {
				"type" : "Point",
				"coordinates" : [ 103.816509136, 1.353443997 ]
			},
			"properties" : {
				"City" : "Singapore",
				"Country" : "Singapore",
				"NumbEmployees" : 477,
				"Ph_numb" : "+65 6411 2500",
				"Arup_Region" : "Australasia Region"
			}
		},
		{
			"type" : "Feature",
			"geometry" : {
				"type" : "Point",
				"coordinates" : [ 151.20691, -33.8696 ]
			},
			"properties" : {
				"City" : "Sydney",
				"Country" : "Australia",
				"NumbEmployees" : 844,
				"Ph_numb" : "+612 9320 9320",
				"Arup_Region" : "Australasia Region"
			}
		},
		{
			"type" : "Feature",
			"geometry" : {
				"type" : "Point",
				"coordinates" : [ 121.56355, 25.03737 ]
			},
			"properties" : {
				"City" : "Taipei",
				"Country" : "China, Republic of (Taiwan)",
				"NumbEmployees" : 26,
				"Ph_numb" : "886 2 7743 8600",
				"Arup_Region" : "East Asia Region"
			}
		},
		{
			"type" : "Feature",
			"geometry" : {
				"type" : "Point",
				"coordinates" : [ 139.691716085, 35.689456332 ]
			},
			"properties" : {
				"City" : "Tokyo",
				"Country" : "Japan",
				"NumbEmployees" : 108,
				"Ph_numb" : "81-3-6261-1800",
				"Arup_Region" : "East Asia Region"
			}
		},
		{
			"type" : "Feature",
			"geometry" : {
				"type" : "Point",
				"coordinates" : [ -79.38544, 43.64869 ]
			},
			"properties" : {
				"City" : "Toronto",
				"Country" : "Canada",
				"NumbEmployees" : 372,
				"Ph_numb" : "+1 416 515 0915",
				"Arup_Region" : "Americas Region"
			}
		},
		{
			"type" : "Feature",
			"geometry" : {
				"type" : "Point",
				"coordinates" : [ 146.82138, -19.25712 ]
			},
			"properties" : {
				"City" : "Townsville",
				"Country" : "Australia",
				"NumbEmployees" : 13,
				"Ph_numb" : "+61 7 4421 4800",
				"Arup_Region" : "Australasia Region"
			}
		},
		{
			"type" : "Feature",
			"geometry" : {
				"type" : "Point",
				"coordinates" : [ 21.01037, 52.2356 ]
			},
			"properties" : {
				"City" : "Warsaw",
				"Country" : "Poland",
				"NumbEmployees" : 152,
				"Ph_numb" : "+48 22 455 4554",
				"Arup_Region" : "Europe"
			}
		},
		{
			"type" : "Feature",
			"geometry" : {
				"type" : "Point",
				"coordinates" : [ -77.03196, 38.89037 ]
			},
			"properties" : {
				"City" : "Washington DC",
				"Country" : "United States of America",
				"NumbEmployees" : 57,
				"Ph_numb" : "(202) 729-8220",
				"Arup_Region" : "Americas Region"
			}
		},
		{
			"type" : "Feature",
			"geometry" : {
				"type" : "Point",
				"coordinates" : [ -3.58569, 54.54685 ]
			},
			"properties" : {
				"City" : "Whitehaven",
				"Country" : "United Kingdom",
				"NumbEmployees" : 99,
				"Ph_numb" : "0194 629 0000",
				"Arup_Region" : "UKIMEA Region"
			}
		},
		{
			"type" : "Feature",
			"geometry" : {
				"type" : "Point",
				"coordinates" : [ -1.31677, 51.06303 ]
			},
			"properties" : {
				"City" : "Winchester",
				"Country" : "United Kingdom",
				"NumbEmployees" : 61,
				"Ph_numb" : "+44 1962 829900",
				"Arup_Region" : "UKIMEA Region"
			}
		},
		{
			"type" : "Feature",
			"geometry" : {
				"type" : "Point",
				"coordinates" : [ 17.02691, 51.10825 ]
			},
			"properties" : {
				"City" : "Wroclaw",
				"Country" : "Poland",
				"NumbEmployees" : 2,
				"Ph_numb" : "0048 71 343 10 81",
				"Arup_Region" : "Europe"
			}
		},
		{
			"type" : "Feature",
			"geometry" : {
				"type" : "Point",
				"coordinates" : [ 114.32472, 30.64353 ]
			},
			"properties" : {
				"City" : "Wuhan",
				"Country" : "China",
				"NumbEmployees" : 20,
				"Ph_numb" : "+86 (0) 27 8575 3388",
				"Arup_Region" : "East Asia Region"
			}
		}
	]
}